{
"type": "FeatureCollection",
"name": "MP",
"crs": { "type": "name", "properties": { "name": "urn:ogc:def:crs:OGC:1.3:CRS84" } },
"features": [
{ "type": "Feature", "properties": { "Name": "MP-01 Manayunk Canal", "Description": "Paired samples to study co-occurrence of PFAS and MPs from same sources." }, "geometry": { "type": "Point", "coordinates": [ -75.2420508, 40.0371469, 0.0 ] } },
{ "type": "Feature", "properties": { "Name": "MP-02 Wissahickon Confluence", "Description": "Paired samples to study co-occurrence of PFAS and MPs from same sources." }, "geometry": { "type": "Point", "coordinates": [ -75.2075734, 40.0127637, 0.0 ] } },
{ "type": "Feature", "properties": { "Name": "MP-03 Before CSOs", "Description": "Paired samples to study co-occurrence of PFAS and MPs from same sources." }, "geometry": { "type": "Point", "coordinates": [ -75.1969333, 39.9920548, 0.0 ] } },
{ "type": "Feature", "properties": { "Name": "MP-04 Below Fairmount Dam", "Description": "Paired samples to study co-occurrence of PFAS and MPs from same sources." }, "geometry": { "type": "Point", "coordinates": [ -75.1840869, 39.9652121, 0.0 ] } },
{ "type": "Feature", "properties": { "Name": "MP-05 Market Street", "Description": "Paired samples to study co-occurrence of PFAS and MPs from same sources." }, "geometry": { "type": "Point", "coordinates": [ -75.1807394, 39.9535626, 0.0 ] } },
{ "type": "Feature", "properties": { "Name": "MP-06 University City Hospital", "Description": "Paired samples to study co-occurrence of PFAS and MPs from same sources." }, "geometry": { "type": "Point", "coordinates": [ -75.1909668, 39.9438578, 0.0 ] } },
{ "type": "Feature", "properties": { "Name": "MP-07 Gray's Ferry", "Description": "Paired samples to study co-occurrence of PFAS and MPs from same sources." }, "geometry": { "type": "Point", "coordinates": [ -75.2069997, 39.9337759, 0.0 ] } },
{ "type": "Feature", "properties": { "Name": "MP-08 Mingo Confluence", "Description": "Paired samples to study co-occurrence of PFAS and MPs from same sources." }, "geometry": { "type": "Point", "coordinates": [ -75.2019766, 39.9198476, 0.0 ] } },
{ "type": "Feature", "properties": { "Name": "MP-09 Passyunk Avenue Bridge", "Description": "Paired samples to study co-occurrence of PFAS and MPs from same sources." }, "geometry": { "type": "Point", "coordinates": [ -75.2108635, 39.897269, 0.0 ] } },
{ "type": "Feature", "properties": { "Name": "MP-10 Delaware Confluence", "Description": "Paired samples to study co-occurrence of PFAS and MPs from same sources." }, "geometry": { "type": "Point", "coordinates": [ -75.1946406, 39.8849223, 0.0 ] } },
{ "type": "Feature", "properties": { "Name": "MP-11 Upstream Fort Washington", "Description": "Captures upstream \"background\" for the creek." }, "geometry": { "type": "Point", "coordinates": [ -75.2183486, 40.1373374, 0.0 ] } },
{ "type": "Feature", "properties": { "Name": "MP-12 Valley Green Road Bridge", "Description": "" }, "geometry": { "type": "Point", "coordinates": [ -75.2191903, 40.1129228, 0.0 ] } },
{ "type": "Feature", "properties": { "Name": "MP-13 Bells Mill Road Bridge", "Description": "After college and country club." }, "geometry": { "type": "Point", "coordinates": [ -75.2254664, 40.079223, 0.0 ] } },
{ "type": "Feature", "properties": { "Name": "MP-14 Cresheim Creek Confluence", "Description": "" }, "geometry": { "type": "Point", "coordinates": [ -75.2145974, 40.050751, 0.0 ] } },
{ "type": "Feature", "properties": { "Name": "MP-15 Gorgas Outlet", "Description": "" }, "geometry": { "type": "Point", "coordinates": [ -75.2118054, 40.0432076, 0.0 ] } },
{ "type": "Feature", "properties": { "Name": "MP-16 Kitchens Lane Outlet", "Description": "" }, "geometry": { "type": "Point", "coordinates": [ -75.2015802, 40.0364305, 0.0 ] } },
{ "type": "Feature", "properties": { "Name": "MP-17 Walnut Lane Bridge", "Description": "" }, "geometry": { "type": "Point", "coordinates": [ -75.1996467, 40.032356, 0.0 ] } },
{ "type": "Feature", "properties": { "Name": "MP-18 Monoshone Creek Confluence", "Description": "" }, "geometry": { "type": "Point", "coordinates": [ -75.193171, 40.0275525, 0.0 ] } },
{ "type": "Feature", "properties": { "Name": "MP-19 Henry Avenue Bridge", "Description": "" }, "geometry": { "type": "Point", "coordinates": [ -75.1961098, 40.0239748, 0.0 ] } },
{ "type": "Feature", "properties": { "Name": "MP-20 Haverford", "Description": "Upstream densest Philly area. Merion Golf Club." }, "geometry": { "type": "Point", "coordinates": [ -75.3113515, 40.0021978, 0.0 ] } },
{ "type": "Feature", "properties": { "Name": "MP-21 Before Major CSOs", "Description": "Suburban area." }, "geometry": { "type": "Point", "coordinates": [ -75.2829718, 39.9768043, 0.0 ] } },
{ "type": "Feature", "properties": { "Name": "MP-22 Indian Creek Confluence", "Description": "SEPTA Depot" }, "geometry": { "type": "Point", "coordinates": [ -75.2604106, 39.9662599, 0.0 ] } },
{ "type": "Feature", "properties": { "Name": "MP-23 Multiple CSOs", "Description": "" }, "geometry": { "type": "Point", "coordinates": [ -75.2485638, 39.9642855, 0.0 ] } },
{ "type": "Feature", "properties": { "Name": "MP-24 Marshall Road", "Description": "Near PWD Stream Restoration project." }, "geometry": { "type": "Point", "coordinates": [ -75.2500555, 39.9576965, 0.0 ] } },
{ "type": "Feature", "properties": { "Name": "MP-25 Cobbs Creek Park", "Description": "High-use urban park in dense neighborhood." }, "geometry": { "type": "Point", "coordinates": [ -75.2394067, 39.9406522, 0.0 ] } },
{ "type": "Feature", "properties": { "Name": "MP-26 Cobbs Creek Parkway", "Description": "After major CSOs. Green space." }, "geometry": { "type": "Point", "coordinates": [ -75.2380757, 39.9325908, 0.0 ] } },
{ "type": "Feature", "properties": { "Name": "MP-27 Darby Confluence", "Description": "Captures total load from Cobbs." }, "geometry": { "type": "Point", "coordinates": [ -75.2550955, 39.9058464, 0.0 ] } }
]
}
